[
  {
    "name": "Elephant's Head Point",
    "lat": 17.9266,
    "lon": 73.6586
  },
  {
    "name": "Arthur's Seat",
    "lat": 17.9159,
    "lon": 73.6697
  },
  {
    "name": "Venna Lake",
    "lat": 17.9256,
    "lon": 73.6925
  },
  {
    "name": "Mapro Garden",
    "lat": 17.9188,
    "lon": 73.6914
  },
  {
    "name": "Pratapgad Fort",
    "lat": 17.8514,
    "lon": 73.5294
  },
  {
    "name": "Krishnabai Temple",
    "lat": 17.9361,
    "lon": 73.6467
  },
  {
    "name": "Lingmala Falls",
    "lat": 17.9106,
    "lon": 73.6608
  },
  {
    "name": "Parsi Point",
    "lat": 17.9093,
    "lon": 73.6682
  },
  {
    "name": "Mahabaleshwar Temple",
    "lat": 17.9254,
    "lon": 73.6604
  }
]
